{
  "metadata": {
    "company": "Capital City Courier Services",
    "region": "Tallahassee, FL Metropolitan Area",
    "lastUpdated": "2025-12-31"
  },
  "routes": [
    {
      "id": "ROUTE-001",
      "name": "Downtown Tallahassee Business Loop",
      "description": "Core downtown business district delivery route covering government buildings and offices",
      "type": "delivery",
      "estimatedDuration": 120,
      "estimatedDistance": 12,
      "waypoints": [
        { "lat": 30.4383, "lng": -84.2807, "name": "Capital City Courier HQ", "type": "depot", "stopDuration": 0, "address": "2847 Industrial Plaza Dr, Tallahassee, FL 32310" },
        { "lat": 30.4381, "lng": -84.2816, "name": "Florida State Capitol", "type": "delivery", "stopDuration": 15, "address": "400 S Monroe St, Tallahassee, FL 32399" },
        { "lat": 30.4417, "lng": -84.2812, "name": "Leon County Courthouse", "type": "delivery", "stopDuration": 10, "address": "301 S Monroe St, Tallahassee, FL 32301" },
        { "lat": 30.4445, "lng": -84.2805, "name": "City Hall", "type": "delivery", "stopDuration": 10, "address": "300 S Adams St, Tallahassee, FL 32301" },
        { "lat": 30.4456, "lng": -84.2789, "name": "Kleman Plaza", "type": "delivery", "stopDuration": 15, "address": "200 W College Ave, Tallahassee, FL 32301" },
        { "lat": 30.4383, "lng": -84.2807, "name": "Capital City Courier HQ", "type": "depot", "stopDuration": 0, "address": "2847 Industrial Plaza Dr, Tallahassee, FL 32310" }
      ],
      "roadTypes": ["city", "city", "city", "city", "city", "city"],
      "trafficPatterns": {
        "morning": "heavy",
        "midday": "moderate",
        "afternoon": "heavy",
        "evening": "light",
        "night": "light"
      }
    },
    {
      "id": "ROUTE-002",
      "name": "FSU Campus Express",
      "description": "Florida State University campus delivery route",
      "type": "delivery",
      "estimatedDuration": 90,
      "estimatedDistance": 8,
      "waypoints": [
        { "lat": 30.4383, "lng": -84.2807, "name": "Capital City Courier HQ", "type": "depot", "stopDuration": 0, "address": "2847 Industrial Plaza Dr, Tallahassee, FL 32310" },
        { "lat": 30.4419, "lng": -84.2985, "name": "FSU Student Union", "type": "delivery", "stopDuration": 15, "address": "75 N Woodward Ave, Tallahassee, FL 32306" },
        { "lat": 30.4432, "lng": -84.3012, "name": "Strozier Library", "type": "delivery", "stopDuration": 10, "address": "116 Honors Way, Tallahassee, FL 32306" },
        { "lat": 30.4398, "lng": -84.3045, "name": "Innovation Hub", "type": "delivery", "stopDuration": 10, "address": "227 S Copeland St, Tallahassee, FL 32304" },
        { "lat": 30.4383, "lng": -84.2807, "name": "Capital City Courier HQ", "type": "depot", "stopDuration": 0, "address": "2847 Industrial Plaza Dr, Tallahassee, FL 32310" }
      ],
      "roadTypes": ["city", "campus", "campus", "city", "city"],
      "trafficPatterns": {
        "morning": "heavy",
        "midday": "moderate",
        "afternoon": "heavy",
        "evening": "moderate",
        "night": "light"
      }
    },
    {
      "id": "ROUTE-003",
      "name": "Tallahassee Airport Run",
      "description": "Express route to Tallahassee International Airport",
      "type": "shuttle",
      "estimatedDuration": 35,
      "estimatedDistance": 10,
      "waypoints": [
        { "lat": 30.4383, "lng": -84.2807, "name": "Capital City Courier HQ", "type": "depot", "stopDuration": 0, "address": "2847 Industrial Plaza Dr, Tallahassee, FL 32310" },
        { "lat": 30.3965, "lng": -84.3503, "name": "Tallahassee International Airport", "type": "pickup", "stopDuration": 20, "address": "3300 Capital Cir SW, Tallahassee, FL 32310" },
        { "lat": 30.4383, "lng": -84.2807, "name": "Capital City Courier HQ", "type": "depot", "stopDuration": 0, "address": "2847 Industrial Plaza Dr, Tallahassee, FL 32310" }
      ],
      "roadTypes": ["city", "highway", "city"],
      "trafficPatterns": {
        "morning": "moderate",
        "midday": "light",
        "afternoon": "moderate",
        "evening": "light",
        "night": "light"
      },
      "frequency": "on_demand"
    },
    {
      "id": "ROUTE-004",
      "name": "Thomasville Road Corridor",
      "description": "North Tallahassee business corridor route along Thomasville Road",
      "type": "delivery",
      "estimatedDuration": 150,
      "estimatedDistance": 18,
      "waypoints": [
        { "lat": 30.4383, "lng": -84.2807, "name": "Capital City Courier HQ", "type": "depot", "stopDuration": 0, "address": "2847 Industrial Plaza Dr, Tallahassee, FL 32310" },
        { "lat": 30.4567, "lng": -84.2734, "name": "Midtown District", "type": "delivery", "stopDuration": 15, "address": "1122 Thomasville Rd, Tallahassee, FL 32303" },
        { "lat": 30.4789, "lng": -84.2567, "name": "Market Square", "type": "delivery", "stopDuration": 10, "address": "1415 Market St, Tallahassee, FL 32312" },
        { "lat": 30.5012, "lng": -84.2234, "name": "Killearn Estates", "type": "delivery", "stopDuration": 15, "address": "3521 Thomasville Rd, Tallahassee, FL 32309" },
        { "lat": 30.5156, "lng": -84.2089, "name": "North Satellite Hub", "type": "break", "stopDuration": 10, "address": "4521 Thomasville Rd, Tallahassee, FL 32309" },
        { "lat": 30.4383, "lng": -84.2807, "name": "Capital City Courier HQ", "type": "depot", "stopDuration": 0, "address": "2847 Industrial Plaza Dr, Tallahassee, FL 32310" }
      ],
      "roadTypes": ["city", "city", "city", "residential", "city", "city"],
      "trafficPatterns": {
        "morning": "heavy",
        "midday": "moderate",
        "afternoon": "heavy",
        "evening": "moderate",
        "night": "light"
      }
    },
    {
      "id": "ROUTE-005",
      "name": "Apalachee Parkway East",
      "description": "Eastern corridor route serving Southwood and Capital Circle SE",
      "type": "delivery",
      "estimatedDuration": 135,
      "estimatedDistance": 16,
      "waypoints": [
        { "lat": 30.4383, "lng": -84.2807, "name": "Capital City Courier HQ", "type": "depot", "stopDuration": 0, "address": "2847 Industrial Plaza Dr, Tallahassee, FL 32310" },
        { "lat": 30.4456, "lng": -84.2456, "name": "Tallahassee Mall", "type": "delivery", "stopDuration": 15, "address": "2415 N Monroe St, Tallahassee, FL 32303" },
        { "lat": 30.4389, "lng": -84.2234, "name": "Apalachee Center", "type": "delivery", "stopDuration": 10, "address": "1500 Apalachee Pkwy, Tallahassee, FL 32301" },
        { "lat": 30.4089, "lng": -84.2156, "name": "Southwood Town Center", "type": "delivery", "stopDuration": 15, "address": "3122 Capital Cir SE, Tallahassee, FL 32311" },
        { "lat": 30.4383, "lng": -84.2807, "name": "Capital City Courier HQ", "type": "depot", "stopDuration": 0, "address": "2847 Industrial Plaza Dr, Tallahassee, FL 32310" }
      ],
      "roadTypes": ["city", "highway", "city", "city", "city"],
      "trafficPatterns": {
        "morning": "moderate",
        "midday": "light",
        "afternoon": "heavy",
        "evening": "moderate",
        "night": "light"
      }
    },
    {
      "id": "ROUTE-006",
      "name": "Tennessee Street University Corridor",
      "description": "Route serving Tennessee Street corridor including FAMU and FSU areas",
      "type": "delivery",
      "estimatedDuration": 100,
      "estimatedDistance": 10,
      "waypoints": [
        { "lat": 30.4383, "lng": -84.2807, "name": "Capital City Courier HQ", "type": "depot", "stopDuration": 0, "address": "2847 Industrial Plaza Dr, Tallahassee, FL 32310" },
        { "lat": 30.4489, "lng": -84.3012, "name": "West Tennessee Plaza", "type": "delivery", "stopDuration": 10, "address": "1520 W Tennessee St, Tallahassee, FL 32304" },
        { "lat": 30.4255, "lng": -84.2839, "name": "FAMU Campus", "type": "delivery", "stopDuration": 15, "address": "1601 S Martin Luther King Jr Blvd, Tallahassee, FL 32307" },
        { "lat": 30.4156, "lng": -84.3089, "name": "Lake Bradford Area", "type": "delivery", "stopDuration": 10, "address": "1600 Lake Bradford Rd, Tallahassee, FL 32304" },
        { "lat": 30.4383, "lng": -84.2807, "name": "Capital City Courier HQ", "type": "depot", "stopDuration": 0, "address": "2847 Industrial Plaza Dr, Tallahassee, FL 32310" }
      ],
      "roadTypes": ["city", "city", "campus", "city", "city"],
      "trafficPatterns": {
        "morning": "heavy",
        "midday": "moderate",
        "afternoon": "heavy",
        "evening": "moderate",
        "night": "light"
      }
    },
    {
      "id": "ROUTE-007",
      "name": "Capital Circle Full Loop",
      "description": "Complete Capital Circle route serving all quadrants",
      "type": "delivery",
      "estimatedDuration": 180,
      "estimatedDistance": 35,
      "waypoints": [
        { "lat": 30.4383, "lng": -84.2807, "name": "Capital City Courier HQ", "type": "depot", "stopDuration": 0, "address": "2847 Industrial Plaza Dr, Tallahassee, FL 32310" },
        { "lat": 30.4847, "lng": -84.2347, "name": "Capital Circle NE Business Park", "type": "delivery", "stopDuration": 15, "address": "2980 Capital Cir NE, Tallahassee, FL 32308" },
        { "lat": 30.4567, "lng": -84.1678, "name": "Capital Circle SE Industrial", "type": "delivery", "stopDuration": 15, "address": "3500 Capital Cir SE, Tallahassee, FL 32311" },
        { "lat": 30.3965, "lng": -84.3503, "name": "Capital Circle SW Airport Area", "type": "delivery", "stopDuration": 15, "address": "3300 Capital Cir SW, Tallahassee, FL 32310" },
        { "lat": 30.4567, "lng": -84.3456, "name": "Capital Circle NW", "type": "delivery", "stopDuration": 10, "address": "2500 Capital Cir NW, Tallahassee, FL 32303" },
        { "lat": 30.4383, "lng": -84.2807, "name": "Capital City Courier HQ", "type": "depot", "stopDuration": 0, "address": "2847 Industrial Plaza Dr, Tallahassee, FL 32310" }
      ],
      "roadTypes": ["city", "highway", "highway", "highway", "highway", "city"],
      "trafficPatterns": {
        "morning": "heavy",
        "midday": "moderate",
        "afternoon": "heavy",
        "evening": "moderate",
        "night": "light"
      }
    },
    {
      "id": "ROUTE-008",
      "name": "Thomasville GA Express",
      "description": "Interstate route to Thomasville, Georgia",
      "type": "longhaul",
      "estimatedDuration": 75,
      "estimatedDistance": 35,
      "waypoints": [
        { "lat": 30.4383, "lng": -84.2807, "name": "Capital City Courier HQ", "type": "depot", "stopDuration": 0, "address": "2847 Industrial Plaza Dr, Tallahassee, FL 32310" },
        { "lat": 30.5456, "lng": -84.1789, "name": "FL/GA State Line", "type": "waypoint", "stopDuration": 0, "address": "US-319, Thomasville, GA" },
        { "lat": 30.8366, "lng": -83.9788, "name": "Thomasville Downtown", "type": "delivery", "stopDuration": 30, "address": "112 E Jackson St, Thomasville, GA 31792" },
        { "lat": 30.4383, "lng": -84.2807, "name": "Capital City Courier HQ", "type": "depot", "stopDuration": 0, "address": "2847 Industrial Plaza Dr, Tallahassee, FL 32310" }
      ],
      "roadTypes": ["city", "highway", "city", "highway"],
      "trafficPatterns": {
        "morning": "moderate",
        "midday": "light",
        "afternoon": "moderate",
        "evening": "light",
        "night": "light"
      }
    },
    {
      "id": "ROUTE-009",
      "name": "Panama City Beach Run",
      "description": "Long-haul coastal route to Panama City Beach via US-98",
      "type": "longhaul",
      "estimatedDuration": 150,
      "estimatedDistance": 98,
      "waypoints": [
        { "lat": 30.4383, "lng": -84.2807, "name": "Capital City Courier HQ", "type": "depot", "stopDuration": 0, "address": "2847 Industrial Plaza Dr, Tallahassee, FL 32310" },
        { "lat": 30.3012, "lng": -84.5678, "name": "Blountstown Rest Stop", "type": "break", "stopDuration": 15, "address": "US-20, Blountstown, FL 32424" },
        { "lat": 30.1588, "lng": -85.6602, "name": "Panama City Beach", "type": "delivery", "stopDuration": 45, "address": "16000 Front Beach Rd, Panama City Beach, FL 32413" },
        { "lat": 30.4383, "lng": -84.2807, "name": "Capital City Courier HQ", "type": "depot", "stopDuration": 0, "address": "2847 Industrial Plaza Dr, Tallahassee, FL 32310" }
      ],
      "roadTypes": ["city", "highway", "highway", "highway"],
      "trafficPatterns": {
        "morning": "moderate",
        "midday": "light",
        "afternoon": "moderate",
        "evening": "light",
        "night": "light"
      }
    },
    {
      "id": "ROUTE-010",
      "name": "Emergency Response - Downtown",
      "description": "Priority emergency response route for downtown Tallahassee",
      "type": "emergency",
      "estimatedDuration": 20,
      "estimatedDistance": 8,
      "waypoints": [
        { "lat": 30.4383, "lng": -84.2807, "name": "Capital City Courier HQ", "type": "depot", "stopDuration": 0, "address": "2847 Industrial Plaza Dr, Tallahassee, FL 32310" },
        { "lat": 30.4445, "lng": -84.2812, "name": "Downtown Priority Zone", "type": "emergency", "stopDuration": 5, "address": "Downtown Tallahassee" },
        { "lat": 30.4567, "lng": -84.2734, "name": "Midtown Priority Zone", "type": "emergency", "stopDuration": 5, "address": "Midtown Tallahassee" },
        { "lat": 30.4383, "lng": -84.2807, "name": "Capital City Courier HQ", "type": "depot", "stopDuration": 0, "address": "2847 Industrial Plaza Dr, Tallahassee, FL 32310" }
      ],
      "roadTypes": ["city", "city", "city", "city"],
      "priority": "critical",
      "trafficPatterns": {
        "morning": "light",
        "midday": "light",
        "afternoon": "light",
        "evening": "light",
        "night": "light"
      }
    }
  ],
  "geofences": [
    {
      "id": "GEO-001",
      "name": "Capital City Courier HQ",
      "type": "facility",
      "center": { "lat": 30.4383, "lng": -84.2807 },
      "radius": 300,
      "alertOnEntry": true,
      "alertOnExit": true,
      "color": "#22c55e"
    },
    {
      "id": "GEO-002",
      "name": "Downtown Tallahassee Zone",
      "type": "operational",
      "center": { "lat": 30.4417, "lng": -84.2812 },
      "radius": 2000,
      "alertOnEntry": false,
      "alertOnExit": true,
      "color": "#3b82f6"
    },
    {
      "id": "GEO-003",
      "name": "Florida State Capitol - Restricted",
      "type": "restricted",
      "center": { "lat": 30.4381, "lng": -84.2816 },
      "radius": 150,
      "alertOnEntry": true,
      "alertOnExit": false,
      "color": "#ef4444"
    },
    {
      "id": "GEO-004",
      "name": "FSU Campus Zone",
      "type": "operational",
      "center": { "lat": 30.4419, "lng": -84.2985 },
      "radius": 1500,
      "alertOnEntry": false,
      "alertOnExit": false,
      "color": "#8b5cf6"
    },
    {
      "id": "GEO-005",
      "name": "FAMU Campus Zone",
      "type": "operational",
      "center": { "lat": 30.4255, "lng": -84.2839 },
      "radius": 1200,
      "alertOnEntry": false,
      "alertOnExit": false,
      "color": "#f97316"
    },
    {
      "id": "GEO-006",
      "name": "Tallahassee International Airport",
      "type": "operational",
      "center": { "lat": 30.3965, "lng": -84.3503 },
      "radius": 800,
      "alertOnEntry": true,
      "alertOnExit": true,
      "color": "#06b6d4"
    },
    {
      "id": "GEO-007",
      "name": "North Satellite Hub",
      "type": "facility",
      "center": { "lat": 30.5156, "lng": -84.2089 },
      "radius": 200,
      "alertOnEntry": true,
      "alertOnExit": true,
      "color": "#22c55e"
    },
    {
      "id": "GEO-008",
      "name": "Leon County Service Area",
      "type": "operational",
      "center": { "lat": 30.4383, "lng": -84.2807 },
      "radius": 25000,
      "alertOnEntry": false,
      "alertOnExit": true,
      "color": "#64748b"
    }
  ]
}
